Name,Type,Suburb/Area,Latitude (S),Longitude (E)
"First Australian Muzzle Loading Gun Rifle and Pistol Club Incorporated, Lithgow",Shooting Range,Unknown,-33.4963581,150.1796051
Bathurst Rifle Range,Shooting Range,Unknown,-33.4382337,149.546134
Newman gun club,Shooting Range,Unknown,-23.3828156,119.7593319
Lithgow Small Arms Rifle Club,Shooting Range,Unknown,-33.4965399,150.1425801
Kununurra Pistol Club,Shooting Range,Unknown,-15.8071244,128.749732
Tactical Assault Paintball,Shooting Range,Unknown,-33.9637996,148.9496852
Horsham Pistol Club,Shooting Range,Unknown,-36.6732017,142.2451519
Patchewollock Gun Club,Shooting Range,Unknown,-35.365706,142.2016882
LazerCorps,Shooting Range,Unknown,-31.8088633,116.0021356
Ararat Rifle Range,Shooting Range,"Ararat, Victoria, 3377",-37.2826164,142.9077918
Atherton Rifle Club,Shooting Range,Unknown,-17.2720729,145.4607956
Gold Coast Pistol Club,Shooting Range,Unknown,-27.9693658,153.3845409
Katherine Paintball,Shooting Range,Unknown,-14.4710664,132.2263324
Facility on Banjo Paterson Way,Shooting Range,"Cumnock, New South Wales, 2866",-32.9754564,148.7837796
Loxton Clay Range,Shooting Range,Unknown,-34.4525884,140.6393696
The Loxton Pistol Club,Shooting Range,Unknown,-34.4523315,140.6374935
Dubbo Pistol Club,Shooting Range,Unknown,-32.3721134,148.7060801
Gold Coast Shooters Supplies,Gun Shop,"Ashmore, 4214",-27.9806978,153.3840165
Millmerran Rifle Club,Shooting Range,Unknown,-27.942102,151.22382
Kapunda Rifle Club,Shooting Range,Unknown,-34.3560936,138.9257934
SSAA Southport,Shooting Range,Unknown,-27.9789506,153.3871843
Leura Pistol Club,Shooting Range,Unknown,-33.7036176,150.3469165
Fisher Firearms,Gun Shop,Unknown,-34.9157696,138.6240927
West Australian Gun Club,Shooting Range,"Whiteman, WA, 6068",-31.8091927,115.924503
Paint Ball,Shooting Range,Unknown,-27.238583,153.0481076
"Kingston Brothers, Gunsmith",Gun Shop,"West End, 4101",-27.4810252,153.0110363
Griffith Rifle Club,Shooting Range,"Beelbangera, NSW, 2680",-34.25363,146.0861244
Guyra Gun Club,Shooting Range,Unknown,-30.264618,151.6815135
G & A Tactical,Gun Shop,Unknown,-28.0934454,153.443077
The Open Range,Shooting Range,Unknown,-27.5673363,151.9445324
Streaky Bay Pistol Club,Shooting Range,Unknown,-32.8888052,134.1777573
Razorback Outdoors,Gun Shop,Unknown,-33.5803737,150.7205002
Facility on Mount Misery Road,Shooting Range,"Mudgee, New South Wales, 2850",-32.6071789,149.5704487
Gulgong Pistol Club,Shooting Range,Unknown,-32.3909876,149.5331043
Windamere Regional Shooting Complex,Shooting Range,Unknown,-32.8193695,149.8026019
Caboolture Firearms,Gun Shop,4510,-27.0843556,152.9811953
SSAA Forsayth & District Branch,Shooting Range,Unknown,-18.5858256,143.5801296
Mildura Clay Target Club,Shooting Range,"Mildura, VIC, 3500",-34.1616669,142.1283377
Toompine Progress Association,Shooting Range,Unknown,-27.22149,144.3682242
Bankstown Gun Shop,Gun Shop,"Bankstown, NSW, 2200",-33.9335633,151.0268077
Horsley Park Gun Shop,Gun Shop,"Horsley Park, NSW, 2175",-33.8414,150.8465583
Southport Indoor Pistol Club,Shooting Range,Unknown,-27.9774734,153.4120743
SSAA Townsville,Shooting Range,Unknown,-19.3526659,146.5038879
Townsville Marksmen Rifle Club,Shooting Range,Unknown,-19.3519949,146.4970412
Cobar Clay Target Club,Shooting Range,Unknown,-31.4867037,145.8402298
Cunnamulla Gun Club,Shooting Range,Unknown,-28.0653884,145.7016532
Queensland Target Sports,Shooting Range,Unknown,-27.5088234,153.1329717
Metropolitan Pistol Club,Shooting Range,"Belmont, QLD, 4153",-27.5105771,153.1354656
Glenmorgan Shooting Club,Shooting Range,Unknown,-27.2461222,149.6794952
Tuggerah Lakes Memorial Shooting Club,Shooting Range,Unknown,-33.3980107,151.4564198
Grantville Rifle Club,Shooting Range,Unknown,-38.4277021,145.5094327
Brisbane Sporting Clays,Shooting Range,"Belmont, QLD, 4153",-27.5265107,153.1268902
Rifle Range,Shooting Range,Unknown,-20.508652,147.8389786
Wattle Grove Park SSAA Shooting Range,Shooting Range,Unknown,-26.4147118,152.5073532
Wongyarra Pistol Club,Shooting Range,Unknown,-32.9836475,138.2248324
Three Springs Sporting Clays,Shooting Range,Unknown,-29.5129546,115.8180858
Bencubbin Rifle Club,Shooting Range,Unknown,-30.8224864,117.8703657
Beverley Rifle Club / Clay Target Club,Shooting Range,Unknown,-32.1202335,116.9398385
Southern Range Sports,Shooting Range,Unknown,-42.9821107,147.2933389
Toogoolawah Clay Target Club,Shooting Range,Unknown,-27.0747182,152.3715795
Facility on Prout Road,Shooting Range,"Belmont, Queensland, 4153",-27.5253441,153.1414377
Campbell Town Rifle Club,Shooting Range,Unknown,-41.1781711,147.5538307
Lone Range Shooting Complex,Shooting Range,Unknown,-31.9587331,115.9292253
Tarawera Pistol and Gun Club,Shooting Range,Unknown,-28.2056932,149.6691867
Charleville Gun Club / Charleville Pistol Club,Shooting Range,Unknown,-26.3839881,146.2300952
Murtech Munitions,Gun Shop,Unknown,-30.9542659,148.3892012
The Corner Shop,Gun Shop,"Walgett, NSW, 2832",-30.0238561,148.1165131
Guns and Ammunition,Gun Shop,Unknown,-34.3133585,148.2985091
Cowboy Guns and Gear,Gun Shop,Unknown,-33.8342927,148.6897694
Tamworth Clay Target Club,Shooting Range,Unknown,-31.2159855,151.0238553
Clay Target Range,Shooting Range,Unknown,-33.0958071,147.1488962
Kyneton Smallbore Rifle Club,Shooting Range,Unknown,-37.2411905,144.4446313
Crown & Country,Gun Shop,Unknown,-36.0533649,146.9331729
Peter Kay Gunsmith,Gun Shop,"Dubbo, NSW, 2830",-32.2441708,148.6141835
Rainbow Rifle Range,Shooting Range,Unknown,-35.9030388,141.9817197
In A Box Laser Tag,Shooting Range,Unknown,-27.6552401,153.165184
Oakleigh Pistol Club,Shooting Range,Unknown,-37.9533894,145.1214104
SSAA Oakey Branch,Shooting Range,Unknown,-27.5238986,151.8653418
Toowoomba Clay Target Club,Shooting Range,Unknown,-27.5232203,151.865487
The Outpost,Gun Shop,Unknown,-23.5255011,148.1586958
Shooter's Delight,Gun Shop,Unknown,-27.6122951,153.1167424
O'Reilly's Firearms,Gun Shop,"Thornbury, VIC, 3071",-37.7543912,145.0011622
Rebel Gun Works,Gun Shop,Unknown,-27.4935273,153.0469727
Gel Ball Undercover,Gun Shop,Unknown,-27.9729794,153.3877681
Wentworth Pistol Club,Shooting Range,Unknown,-34.0953513,141.9360987
Binnaway Small Bore Rifle Club,Shooting Range,Unknown,-31.5498602,149.3628941
Popaway & Bang,Gun Shop,Unknown,-31.985073,115.9028746
Ballandean Clay Target Club,Shooting Range,"Ballandean, QLD",-28.8039679,151.8404214
Gel Blasters,Gun Shop,Unknown,-26.5402177,151.8391589
Retschlag Firearms,Gun Shop,Unknown,-24.4013692,150.5129336
Noarlunga City Pistol Club,Shooting Range,Unknown,-35.1898238,138.5023709
Teta's Authentic Lebanese (Google),Gun Shop,"Roseville Chase, New South Wales, 2069",-33.7785484,151.1952598
NT Field and Game,Shooting Range,Unknown,-12.4039928,130.9504493
Darwin Rifle Club,Shooting Range,Unknown,-12.4061045,130.9421485
SSAA Darwin,Shooting Range,Unknown,-12.4007449,130.9475998
Darwin Pistol Club,Shooting Range,Unknown,-12.39726,130.9525414
Darwin Clay Target Shooting Club,Shooting Range,Unknown,-12.401114,130.8836993
Rosedale Rifle Clubs Inc.,Shooting Range,"Rosedale, VIC, 3847",-38.1702405,146.811766
Terry Hills Gun Shop,Gun Shop,Unknown,-33.6833369,151.2248169
Foodland Yorketown (Google),Gun Shop,"Yorketown, South Australia, 5576",-35.0191566,137.6028283
Sunshine Coast Gun Shop,Gun Shop,Unknown,-26.6587083,153.0958966
Hornsby Rifle Range,Shooting Range,Unknown,-33.6892507,151.08864
Mount Isa S.S.A.A. Rifle Range,Shooting Range,Unknown,-20.7201389,139.6344381
Mount Isa Rifle Range,Shooting Range,Unknown,-20.7149553,139.6360929
Richmond Pistol Club,Shooting Range,Unknown,-20.7506474,143.1450195
Castlemaine Rifle Range,Shooting Range,Unknown,-37.0573077,144.1966385
Rifle Range,Shooting Range,Unknown,-38.3125729,144.6759509
St Ives Pistol Club,Shooting Range,Unknown,-33.7057727,151.2007534
Melbourne International Shooting Club,Shooting Range,Unknown,-37.8295832,144.91348
Canberra National Pistol Club (Google),Shooting Range,"Canberra, 2612",-35.283165,149.1646096
Frankston Clay Target Club,Shooting Range,Unknown,-38.0804131,145.1653085
Castlemaine Pistol Club,Shooting Range,Unknown,-37.077709,144.243765
Clay Target Club,Shooting Range,Unknown,-23.7563982,133.9191034
Sydney Pistol Club,Shooting Range,Unknown,-33.9930247,151.2500965
Range 1,Shooting Range,Unknown,-33.7220521,150.806167
New South Wales Gun Club,Shooting Range,Unknown,-33.673042,151.1929285
Ararat Pistol Club (Google),Shooting Range,"Ararat, Victoria, 3377",-37.2737293,142.9501468
Ravenshoe and District S.S.A.A. Rifle Range,Shooting Range,Unknown,-17.6141607,145.4730375
Ravenshoe Mount Garnet Rifle Club,Shooting Range,Unknown,-17.6138999,145.4736707
Melbourne Gun Club,Shooting Range,Unknown,-37.6862144,145.3494855
Abela's Gun Shop,Gun Shop,Unknown,-34.0593785,150.8176006
Darling Downs Rifle Club,Shooting Range,Unknown,-27.537234,151.9707892
Kempsey Rifle Range,Shooting Range,Unknown,-31.1116051,152.8547159
Facility on Munda Biddi Trail,Shooting Range,"Western Australia, 6124",-32.3147462,116.1031938
Facility on Jarrahdale Road,Shooting Range,"Western Australia, 6124",-32.318364,116.1029309
Warren Gun Club,Shooting Range,Unknown,-31.6925072,147.8167924
Julia Creek Pistol & Rifle Range,Shooting Range,"Julia Creek, 4823",-20.6103557,141.6648138
Nepean Clay Target Club,Shooting Range,Cape Schanck,-38.4521481,144.9118563
Diamond Valley Pistol Club,Shooting Range,Unknown,-37.6201025,145.1291304
Brisbane Pistol Club (Google),Shooting Range,"Belmont, Queensland, 4153",-27.5107984,153.1364165
Queensland Military Rifle Club (QMRC) (Google),Shooting Range,"Belmont, Queensland, 4153",-27.5149354,153.1403179
SSAA Rifle Range,Shooting Range,Unknown,-23.3703749,119.737048
Pistol Club,Shooting Range,Unknown,-23.3717844,119.7360944
Canning Pistol and Rifle Range,Shooting Range,"Canning Vale, WA, 6155",-32.0870019,115.8913323
Facility on Golden Highway,Shooting Range,New South Wales,-32.6412369,151.1680887
Unknown,Shooting Range,New South Wales,-32.6561739,151.1662286
S.S.A.A. Trap House,Shooting Range,Unknown,-20.7195713,139.6376601
SALMON GUMS COMMUNITY CARAVAN PARK (Google),Shooting Range,"Salmon Gums, Western Australia",-32.982108,121.6501224
Loxton Rifle Range,Shooting Range,Unknown,-34.4550242,140.6488582
Target Rifle Club,Shooting Range,Unknown,-38.1815531,144.3580713
Balaklava Sports Shooting Club (Google),Shooting Range,"Balaklava, South Australia, 5461",-34.1255017,138.4491351
Balaklava Sports Shooting Club (Google),Shooting Range,"Balaklava, South Australia, 5461",-34.1262294,138.4496429
Paintball Skirmish,Shooting Range,Unknown,-31.7924047,115.9970163
John Wood Sports Ground,Shooting Range,Unknown,-37.5602289,146.2429013
Winton Shooters,Shooting Range,Unknown,-22.3826268,143.0732562
Caboolture Clay Target Club,Shooting Range,Unknown,-27.1456035,153.0218279
Monarto State Range,Shooting Range,Unknown,-35.1472873,139.154881
Benalla Pistol Club,Shooting Range,Unknown,-36.6003158,145.9590427
Armidale Pistol Club,Shooting Range,Unknown,-30.5340527,151.6813245
Bendigo Pistol Club,Shooting Range,Unknown,-36.7579054,144.338521
Elizabeth Pistol Club,Shooting Range,Unknown,-34.7358788,138.688316
Newman Rifle Club (Disused),Shooting Range,Unknown,-23.3893038,119.7530716
Sydney International Shooting Centre (Google),Shooting Range,"Cecil Park, New South Wales, 2171",-33.8883099,150.8180716
Wingfield Rifle Club,Shooting Range,Unknown,-34.8368147,138.5510483
Mia Mia Rifle Range,Shooting Range,Unknown,-36.9742205,144.5599785
Gun Club (Google),Shooting Range,"Broken Hill, New South Wales, 2880",-31.9237523,141.4948466
Facility on Range Road,Shooting Range,"Broken Hill, New South Wales, 2880",-31.9239046,141.4982664
Grenfell Gun Club,Shooting Range,Unknown,-33.8765934,148.1163952
Port Phillip Field & Game,Shooting Range,Unknown,-38.4497378,144.912764
Dubbo Gun Club,Shooting Range,Unknown,-32.1402028,148.7103455
Warnambool Rifle Range,Shooting Range,Unknown,-38.4339793,142.5898959
Facility on Castlereagh Highway,Shooting Range,"Coonamble, New South Wales, 2829",-30.9803685,148.3892285
Facility on Heritage Trail,Shooting Range,Queensland,-22.5930982,144.5285012
Mt Hotham Whiskey Flat Biathlon Range,Shooting Range,Unknown,-37.0029628,147.1845757
Cobar Amateur Pistol Club,Shooting Range,Unknown,-31.4878935,145.8409804
Manjimup District Rifle Club,Shooting Range,Unknown,-34.1935819,116.153215
Yackandandah Pistol Club,Shooting Range,Unknown,-36.3575529,146.8823659
Bathurst Pistol Club,Shooting Range,Unknown,-33.4254193,149.5498756
Batemans Bay SSAA,Shooting Range,Unknown,-35.7441051,150.1577855
Wyong Distric Pistol Club,Shooting Range,Unknown,-33.1721048,151.589167
Kariong Regional Shooting Complex,Shooting Range,Unknown,-33.4575244,151.2697936
SSAA Para Range (Google),Shooting Range,"Greenwith, South Australia, 5125",-34.7539953,138.7036849
Facility on Mary McKillop Walk,Shooting Range,"Kapunda, South Australia, 5373",-34.3584508,138.9287169
Beverley Rifle Range,Shooting Range,Unknown,-32.1225515,116.9426122
Pingelly Rifle Range,Shooting Range,Unknown,-32.5472182,117.0832589
Taree Wingham ClayTarget Club,Shooting Range,Unknown,-31.8545912,152.3778995
Yarra Pistol Club,Shooting Range,Unknown,-37.9431715,145.3163238
Newcastle Lake Macquarie Clay Target Club,Shooting Range,Unknown,-33.0349506,151.5570784
Gosford Rifle Range,Shooting Range,Unknown,-33.4648134,151.2636918
Casino Rifle Range,Shooting Range,Unknown,-28.8839576,153.0268532
Broome Pistol Club & Overflow Caravan Park (Google),Shooting Range,"Broome, Western Australia, 6752",-17.9883984,122.2096135
Pistol Club,Shooting Range,Unknown,-33.5351132,118.2000545
ANZAC Rifle Range,Shooting Range,Unknown,-33.9565133,151.2564958
Eagle Park Shooting Complex,Shooting Range,Unknown,-37.9139328,144.4387972
Facility on Box Ridge Road,Shooting Range,"New South Wales, 2395",-31.5474987,149.3903968
Cessnock Pistol Club,Shooting Range,Unknown,-32.826841,151.3966189
Newtech Pistol Club,Shooting Range,Unknown,-32.9526326,151.5903581
Grafton Pistol Club,Shooting Range,Unknown,-29.7323675,152.9597798
Facility on Rifle Range Road,Shooting Range,"Wingham, New South Wales, 2429",-31.8494854,152.3696707
Ayers Rock Clay Target Club,Shooting Range,Unknown,-25.2424283,130.9715049
Rifle Range,Shooting Range,Unknown,-36.6016834,145.9591894
Kariong Regional Shooting Complex,Shooting Range,Unknown,-33.4568968,151.2701889
Kariong Regional Shooting Complex,Shooting Range,Unknown,-33.4541859,151.2719672
Sydney International Shooting Centre (Google),Shooting Range,"Cecil Park, New South Wales, 2171",-33.8900444,150.8180743
Sydney International Shooting Centre (Google),Shooting Range,"Cecil Park, New South Wales, 2171",-33.8890866,150.8171465
Cecil Park Clay Target Club,Shooting Range,Unknown,-33.88857,150.8181589
Sydney International Shooting Centre (Google),Shooting Range,"Cecil Park, New South Wales, 2171",-33.8883251,150.8190876
Facility on Reserve Road,Shooting Range,"Marrangaroo, New South Wales, 2790",-33.4268629,150.1269199
Facility on Torlesse Street,Shooting Range,"Campbell Town, Tasmania, 7210",-41.9456153,147.4845424
Ungarrie Rifle Range,Shooting Range,Unknown,-33.6427059,147.0011315
Facility on Castlereagh Highway,Shooting Range,"Walgett, New South Wales, 2832",-30.0056881,148.139906
Coffs Harbour Rifle Club,Shooting Range,Unknown,-30.3104861,153.1305135
Darnick Gun Club,Shooting Range,Unknown,-32.8518907,143.6220596
Facility on Burnside Quarry Track,Shooting Range,"Greenhill, South Australia, 5140",-34.9503857,138.6748688
Eastern Amateur Pistol Club Inc (Google),Shooting Range,"Greenhill, South Australia, 5140",-34.9500575,138.6790623
Hall's Firearms,Gun Shop,4700,-23.389028,150.5066089
SSAA Wodonga Rifle Range (Google),Shooting Range,"Victoria, 3691",-36.0987531,146.7945143
Melbourne International Shooting Club,Shooting Range,"Port Melbourne, Victoria, 3207",-37.8292749,144.914371
Clayton Firearms,Gun Shop,Unknown,-37.9282901,145.1194911
Facility on Cleverdon Court,Shooting Range,"Chinchilla, Queensland, 4413",-26.7587479,150.6513671
Yatpool Rifle Range,Shooting Range,Unknown,-34.3813349,142.1960313
Sporting Shooters Association of Australia Shooting Complex,Shooting Range,Canberra,-35.2109751,149.1985975
Facility on Hector McIntosh Grove,Shooting Range,Canberra,-35.2116052,149.1984223
Sporting Shooters Association of Australia Act Inc. (Google),Shooting Range,Canberra,-35.2120371,149.198579
Sporting Shooters Association of Australia Act Inc. (Google),Shooting Range,Canberra,-35.2129877,149.1981449
Blanchetown Pistol & Smallbore Club,Shooting Range,Unknown,-34.3622187,139.6143864
Stawell Rifle Range,Shooting Range,Unknown,-37.076824,142.7999916
Stawell Pistol Club,Shooting Range,Unknown,-37.0747614,142.8003413
SSAA Belmont 50m Pistol Range,Shooting Range,Unknown,-27.5129223,153.1279939
SSAA Belmont 200m Pistol Range,Shooting Range,Unknown,-27.5134085,153.1286588
SSAA Belmont Main range,Shooting Range,Unknown,-27.5148908,153.1283019
Pistol Club,Shooting Range,Unknown,-19.7014255,147.282541
Rifle Range,Shooting Range,Unknown,-19.7007733,147.278419
Palmerston Pistol Club (Google),Shooting Range,"Archer, 0830",-12.5109754,130.9554849
Dimboola Rifle Range,Shooting Range,Unknown,-36.469902,142.0230745
Newcastle Pistol Club (Google),Shooting Range,"Waratah West, New South Wales, 2298",-32.9017169,151.7138086
Newcastle Pistol Club (Google),Shooting Range,"Waratah West, New South Wales, 2298",-32.9020718,151.7155024
Grantville (Glen Forbes) Rifle Range,Shooting Range,"Victoria, 3990",-38.4295908,145.5116281
25 Metre Range,Shooting Range,Unknown,-38.3130649,144.6847279
Coonabarabran Rifle Range,Shooting Range,Unknown,-31.4073245,149.4754471
Horsham Rifle Range,Shooting Range,Unknown,-36.7357619,142.1445293
Kaniva Rifle Range (Google),Shooting Range,"Kaniva, Victoria, 3419",-36.3904035,141.2486628
Kalgoorlie Rifle Range,Shooting Range,Unknown,-30.7436038,121.4329575
Geraldton Small Bore Rifle Range,Shooting Range,Unknown,-28.7696834,114.6412909
Rifle Range,Shooting Range,Unknown,-28.7279108,115.05968
Hamilton Rifle Range,Shooting Range,Unknown,-37.7735213,142.0293815
S.S.A.A.,Shooting Range,Unknown,-20.7194259,139.6376271
Norfolk Island Pistol Club,Shooting Range,Unknown,-29.0068557,167.9199181
Cooma Rifle Range,Shooting Range,Unknown,-36.2455883,149.1468527
Range 4,Shooting Range,Unknown,-33.7218444,150.8066098
Range 8,Shooting Range,Unknown,-33.7219715,150.8075677
West Wyalong Gun Club,Shooting Range,Unknown,-33.8935787,147.2382757
Oakdale Pistol Club Inc,Shooting Range,Unknown,-42.8406308,147.3870226
Moree Gun Club,Shooting Range,"Moree, 2400",-29.4007892,149.9378616
Facility on Reservoir Street,Shooting Range,"Coonabarabran, New South Wales, 2357",-31.2832462,149.2613453
Melbourne Firearms Centre,Gun Shop,"Ringwood East, VIC, 3135",-37.8188157,145.2436543
Cleaver Firearms,Gun Shop,Unknown,-27.2426376,153.1080273
Townsville Pistol Club,Shooting Range,"Roseneath, QLD, 4811",-19.3555391,146.8251408
Tolosa Shooting Range,Shooting Range,Unknown,-42.854088,147.2491696
Sporting Shooters Association of Australia,Shooting Range,Unknown,-42.8542965,147.2495538
Murwillumbah Pistol Club,Shooting Range,"South Murwillumbah, NSW, 2484",-28.3381381,153.4187925
Blue Hills Range,Shooting Range,Unknown,-42.8414433,147.772836
Oberon Pistol Club,Shooting Range,Unknown,-33.7658106,149.8644216
Facility on Blue Hills Road,Shooting Range,"Tasmania, 7174",-42.8426542,147.779613
Wandoan Gun Club,Shooting Range,Unknown,-26.1244247,149.9705498
Safari Firearms,Gun Shop,Unknown,-33.9489468,151.1140857
Shooting Complex (Google),Shooting Range,"Wacol, Queensland, 4076",-27.5794042,152.9166846
Motel on Becker (Google),Gun Shop,Unknown,-35.8821535,140.0546472
Southern Vales Practical Shooting League Inc. (Google),Shooting Range,Unknown,-35.1705347,138.527244
Manly Small Bore Rifle Club,Shooting Range,Unknown,-33.7811383,151.2740103
St Helens Gun Club,Shooting Range,Unknown,-41.2729655,148.2854708
St Helens Gun Club,Shooting Range,Unknown,-41.2724062,148.2855396
Roma Gun Club,Shooting Range,Unknown,-26.5943105,148.7727682
Katoomba Rifle Club,Shooting Range,Unknown,-33.7048664,150.3448947
Blue Mountains Pistol Club (Google),Shooting Range,Unknown,-33.7034876,150.3468699
Bacchus Marsh Rifle Range,Shooting Range,Unknown,-37.6865722,144.3723964
Canberra Rifle Club (Google),Shooting Range,Unknown,-35.2160264,149.1961442
Majura Pistol Club (Google),Shooting Range,Unknown,-35.2084716,149.2026498
Majura Pistol Club (Google),Shooting Range,Unknown,-35.208545,149.2030072
Majura Park Gun Club - Clay Target (Google),Shooting Range,Unknown,-35.2088753,149.1999655
Majura Park Gun Club - Clay Target (Google),Shooting Range,Unknown,-35.2087516,149.2015649
Majura Park Gun Club - Clay Target (Google),Shooting Range,Unknown,-35.2087812,149.2011809
Unknown,Shooting Range,Unknown,-35.216295,149.1982177
Unknown,Shooting Range,Unknown,-35.2147511,149.200103
Sporting Shooters Association of Australia Act Inc. (Google),Shooting Range,Unknown,-35.2137556,149.1983666
Sporting Shooters Association of Australia Act Inc. (Google),Shooting Range,Unknown,-35.2127214,149.1992502
Shoesmith Firearms,Gun Shop,"Toowoomba City, 4350",-27.5659426,151.9521695
Unknown,Shooting Range,Unknown,-38.3894682,141.6452948
Service Range,Shooting Range,Unknown,-33.9607625,151.2565966
Rennie Shooting Range,Shooting Range,Unknown,-35.8126137,146.1356361
Rennie Shooting Range,Shooting Range,Unknown,-35.81298,146.1354118
Peninsular Firearm Academy,Shooting Range,Unknown,-33.7069833,151.1994434
SSAA Biloela,Shooting Range,Unknown,-24.2432104,150.5614274
Horseshoe Range,Shooting Range,Unknown,-33.9604205,151.2582624
25m Zero Range,Shooting Range,Unknown,-33.9600916,151.2591623
Darwin Rifle Club,Shooting Range,Unknown,-12.401676,130.9423094
Wallaroo Pistol & Shooting Club Inc,Shooting Range,Unknown,-33.936963,137.6225106
Unknown,Shooting Range,Unknown,-33.4900062,150.196821
SSAA Sydney Branch Silverdale Rifle Range (Google),Shooting Range,Unknown,-33.9392357,150.6030098
Beaudesert Rifle Club,Shooting Range,Unknown,-27.9993751,153.071872
Quilpie Sporting Clays,Shooting Range,Unknown,-26.6150953,144.2452052
Unknown,Shooting Range,Unknown,-33.4987443,150.1442879
City of Maitland Pistol Club,Shooting Range,Unknown,-32.7456419,151.6193528
Peninsula Pistol Club,Shooting Range,Unknown,-38.2640387,145.0354863
Springwood Rifle Club,Shooting Range,Unknown,-33.7134928,150.5554937
Springwood Small Bore Rifle Club (Google),Shooting Range,Unknown,-33.7137164,150.5555375
Boorowa Gun Club,Shooting Range,Unknown,-34.4478668,148.6844986
Gem Fields Clay Shooting Club,Shooting Range,Unknown,-23.55099,147.7934798
Hervey Range Range Complex,Shooting Range,Unknown,-19.3568843,146.5007983
Unknown,Shooting Range,Unknown,-19.3545498,146.5049823
Full Boar Archers (Google),Shooting Range,Unknown,-19.3554389,146.4973437
Unknown,Shooting Range,Unknown,-19.3541684,146.502458
Unknown,Shooting Range,Unknown,-19.3538647,146.5014939
Unknown,Shooting Range,Unknown,-19.3556362,146.4986821
Unknown,Shooting Range,Unknown,-19.3558903,146.4966033
Unknown,Shooting Range,Unknown,-19.3555599,146.4955926
Sturt Pistol & Shooting Club,Shooting Range,Unknown,-35.0531982,138.5393791
Emmaville Rifle Range,Shooting Range,Unknown,-29.4567631,151.6146571
SSAA Pistol Range,Shooting Range,Unknown,-25.4025467,152.6790146
Fraser Coast Sporting Clays,Shooting Range,Unknown,-25.3994055,152.6988271
Fraser Coast Pistol Club,Shooting Range,Unknown,-25.4007332,152.6925293
SSAA Rifle Range,Shooting Range,Unknown,-25.4020894,152.6839752
Narrabri Rifle Range,Shooting Range,Unknown,-30.2573601,149.8442376
Whyalla Rifle Range,Shooting Range,Unknown,-33.0452517,137.5504782
richmond river gun club,Shooting Range,"Monaltrie, NSW, 2480",-28.8417939,153.2905847
Unknown,Shooting Range,Unknown,-28.8874554,121.3433206
Unknown,Shooting Range,Unknown,-28.8864899,121.3423399
Leonora Clay Target Club,Shooting Range,Unknown,-28.8864071,121.3428461
Unknown,Shooting Range,Unknown,-28.8862641,121.3437435
Queensland Military Rifle Club (QMRC) (Google),Shooting Range,Unknown,-27.514333,153.1384214
Shooting Complex (Google),Shooting Range,Unknown,-27.5130389,153.1413086
Moonie Sports Club (Google),Shooting Range,Unknown,-27.7170199,150.3728395
Charters Towers Gun Club,Shooting Range,Unknown,-20.0421386,146.2488361
SSAA Middlemount,Shooting Range,Unknown,-22.7923472,148.7366549
Perrin Crockett Rifle Range,Shooting Range,Unknown,-22.7626966,147.6383815
Bluff Shooting Complex,Shooting Range,Unknown,-23.5838913,149.0434896
Hobart Gun Club,Shooting Range,Unknown,-42.6692312,147.2619037
Hobart Clay Target Club (Google),Shooting Range,Unknown,-42.6695423,147.2606543
Hobart Clay Target Club (Google),Shooting Range,Unknown,-42.6683515,147.2623756
Huon Combined Shooting Club,Shooting Range,Unknown,-43.1012592,146.9186266
Wallaroo Pistol & Shooting Club Inc,Shooting Range,Unknown,-33.9371471,137.6223083
Unknown,Shooting Range,Unknown,-27.4038189,117.9376294
Tamworth Pistol Club,Shooting Range,Unknown,-31.0607601,150.9545678
Shooters Union of QLD,Shooting Range,Unknown,-28.290559,152.0018156
Shooters Union of QLD,Shooting Range,Unknown,-28.290496,152.0021722
Shorting Shooters Association of Australia,Shooting Range,Unknown,-28.2925355,152.0025612
Shooting Complex (Google),Shooting Range,Unknown,-28.2910787,151.999872
Southern Downs Rifle Club,Shooting Range,Unknown,-28.2919311,152.0006471
Bencubbin Rifle Club,Shooting Range,Unknown,-30.8233582,117.8732031
Unknown,Shooting Range,Unknown,-41.026837,147.001728
Unknown,Shooting Range,Unknown,-33.7996202,120.1904952
St Marys Indoor Shooting Centre,Shooting Range,"St Marys, 2760",-33.7520121,150.775752
Albany Clay Target Club,Shooting Range,Unknown,-34.9004691,117.9157254
Chester Pass SSAA Club,Shooting Range,Unknown,-34.8982127,117.906925
Leongatha Small Bore Rifle Club,Shooting Range,Unknown,-38.4669029,145.9500152
Unknown,Shooting Range,Unknown,-37.0006659,144.8567898
Spring Ridge Rifle Range,Shooting Range,Unknown,-31.4133825,150.2636442
Unknown,Shooting Range,Unknown,-41.1150327,146.8981415
Unknown,Shooting Range,Unknown,-41.1150054,146.8974153
Oakdale Pistol Club (Google),Shooting Range,Unknown,-42.8404207,147.3872814
Griffith Gun Club- Skeet (Google),Shooting Range,Unknown,-34.2577456,146.0438305
Monto Rifle Club,Shooting Range,Unknown,-24.8581967,151.0848852
Walcha Gun Club,Shooting Range,Unknown,-30.939687,151.5690857
Unknown,Shooting Range,Unknown,-32.6791332,151.164553
Unknown,Shooting Range,Unknown,-32.676276,151.1736885
25m range (Google),Shooting Range,Unknown,-34.7195962,138.6213041
Tamworth Clay Target Club,Shooting Range,Unknown,-31.2166519,151.0240003
Warracknabeal Rifle Range,Shooting Range,Unknown,-36.2289362,142.4059246
Arnhem Gun Club,Shooting Range,Unknown,-12.2289016,136.8299537
Military Shooting Range,Shooting Range,Unknown,-35.2427328,149.2091486
Buchan Rifle Range,Shooting Range,Unknown,-37.5680428,148.1387426
Casino Rifle Range,Shooting Range,Unknown,-28.8754149,153.0353458
Broome Gun Club,Shooting Range,Unknown,-17.9880334,122.2089033
Colac Rifle Range,Shooting Range,Unknown,-38.3297796,143.5605953
Hopetoun Clay Target Club,Shooting Range,Unknown,-33.7990339,120.1902549
Three Springs Sporting Clays,Shooting Range,Unknown,-29.5142005,115.8192879
Bundaberg Clay Target Club,Shooting Range,Unknown,-24.8996606,152.3508662
Unknown,Shooting Range,Unknown,-24.9011636,152.3517915
Eric Bury Memorial Muckadilla Rifle Range,Shooting Range,Unknown,-26.5879668,148.3896833
Unknown,Shooting Range,Unknown,-22.7052437,117.7900754
Swan Hill Clay Target Club,Shooting Range,Unknown,-35.3333037,143.4558945
Whyalla Rifle Club,Shooting Range,Unknown,-33.0437254,137.5465598
Whyalla Clay Target Club,Shooting Range,Unknown,-33.0430032,137.5478998
Whyalla Pistol Club,Shooting Range,Unknown,-33.0419984,137.5531081
SSAA SA - Whyalla Branch,Shooting Range,Unknown,-33.0425652,137.5505334
Tenterfield Firearms,Gun Shop,Unknown,-29.0501831,152.0073784
SSAA Tenterfield N46 Range (Google),Shooting Range,Unknown,-29.0602694,152.0379496
McArthur River Clay Target Club (Google),Shooting Range,Unknown,-16.4407417,136.0679644
Unknown,Shooting Range,Unknown,-35.1665201,143.3503392
SSAA TO3 (Google),Shooting Range,Unknown,-42.8585818,147.2510563
Ararat Rifle Range (Google),Shooting Range,Unknown,-37.2815648,142.9111543
Birchip Rifle Range (Google),Shooting Range,Unknown,-35.9803564,142.9278833
Geelong Rifle Range (Google),Shooting Range,Unknown,-37.9922299,144.3283361
Glenrowan Rifle Range (Google),Shooting Range,Unknown,-36.4700852,146.2216924
Unknown,Shooting Range,Unknown,-37.7699675,142.0305402
Hamilton Rifle Range (Google),Shooting Range,Unknown,-37.7755851,142.0290261
Horsham Rifle Range (Google),Shooting Range,Unknown,-36.7353392,142.1443157
Karramomus Rifle Range (Google),Shooting Range,Unknown,-36.4918499,145.5059331
Katandra Rifle Range (Google),Shooting Range,Unknown,-36.2512624,145.6254222
Lang Lang Rife Range,Shooting Range,Unknown,-38.270143,145.5772032
Cowra Clay Target Club,Shooting Range,Unknown,-33.8365877,148.6487363
Pistol Club,Shooting Range,Unknown,-36.587623,145.9239278
Feild & Game,Shooting Range,Unknown,-36.6095897,145.9506343
Cootamundra Shooting Range,Shooting Range,Unknown,-34.65734,148.0126081
Kerang clay target club (Google),Shooting Range,Unknown,-35.734406,143.8668295
Moe Gun Club,Shooting Range,Unknown,-38.196046,146.2237103
Unknown,Shooting Range,Unknown,-35.2836798,149.2316827
Unknown,Shooting Range,Unknown,-35.2837094,149.2313353
Unknown,Shooting Range,Unknown,-35.2818893,149.2312067
Unknown,Shooting Range,Unknown,-35.2821411,149.2301124
Gold Coast Clay Target Club,Shooting Range,Unknown,-27.7580913,153.3363878
Holts Gun Shop,Gun Shop,Unknown,-38.3380502,143.577315
Jarrahdale Sporting Shooters Club,Shooting Range,Unknown,-32.3158572,116.1040101
Unknown,Shooting Range,Unknown,-32.315227,116.1045644
Unknown,Shooting Range,Unknown,-32.3152724,116.1042881
Unknown,Shooting Range,Unknown,-32.3146456,116.1023053
Atherton Rifle Range,Shooting Range,Unknown,-17.2749344,145.4531308
Unknown,Shooting Range,Unknown,-29.0624489,152.0379554
Unknown,Shooting Range,Unknown,-29.0627377,152.0379075
Unknown,Shooting Range,Unknown,-35.0701239,150.832454
Wagga Wagga Gun Club,Shooting Range,Unknown,-35.1318785,147.4124258
Dimboola Rifle Range (Google),Shooting Range,Unknown,-36.4669636,142.024276
Unknown,Shooting Range,Unknown,-28.8767932,153.0342872
Micket Creek Shooting Complex,Shooting Range,Unknown,-12.4008336,130.9456639
SSAA Darwin,Shooting Range,Unknown,-12.3979874,130.947163
Darwin Pistol Club,Shooting Range,Unknown,-12.396686,130.9516632
NT Field and Game,Shooting Range,Unknown,-12.404643,130.9500718
Darwin Clay Target Club,Shooting Range,Unknown,-12.401773,130.883402
Orange Clay Target Club,Shooting Range,Unknown,-33.2661894,149.2627295
Shooting Complex (Google),Shooting Range,Unknown,-25.3729756,151.1377073
Albany Rifle Club,Shooting Range,Unknown,-35.0596769,117.840524
Unknown,Shooting Range,Unknown,-35.0583397,117.8418982
Central Burnett Gun Club,Shooting Range,Unknown,-25.6162111,151.2990861
Rockhampton Pistol Club,Shooting Range,Unknown,-23.3828205,150.5775057
Rockhampton Clay Target Club,Shooting Range,Unknown,-23.3564622,150.4885671
Mersey Clay Target Club,Shooting Range,Unknown,-41.3306994,146.5773071
Unknown,Shooting Range,Unknown,-42.6757777,147.2891604
Canning Club (Google),Shooting Range,Unknown,-32.087114,115.890314
Canning Club (Google),Shooting Range,Unknown,-32.0867745,115.8916638
Silkwood Clay Target Club,Shooting Range,Unknown,-17.7478953,146.0256169
Night Training Facility,Shooting Range,Unknown,-12.4341355,130.9723631
Orana Range Complex,Shooting Range,Unknown,-32.1050134,148.8247082
Robinvale Rifle Range,Shooting Range,Unknown,-34.638853,142.7012294
Murrumba Pistol Club,Shooting Range,Unknown,-27.0657372,152.9461435
The Outpost,Gun Shop,Unknown,-23.3487016,150.5225064
Lightning Ridge Pistol Club,Shooting Range,Unknown,-29.4277544,147.9978624
Whyalla Rifle Club (Google),Shooting Range,Unknown,-33.0433847,137.5487182
Unknown,Shooting Range,Unknown,-33.0440759,137.5511512
Unknown,Shooting Range,Unknown,-33.0425106,137.5525398
Unknown,Shooting Range,Unknown,-33.8305576,146.2735228
Carnavon Clay Target Club,Shooting Range,Unknown,-24.9119028,113.7279108
Gun Emporium,Gun Shop,"Unit 1/47 Assembly Dr, Tullamarine VIC 3043, Australia",-37.708641899999996,144.8630231
Miall's Gun Shop,Gun Shop,"59-61 Playne St, Frankston VIC 3199, Australia",-38.145843,145.12495959999998
Apex Firearms and Defence,Gun Shop,"35 Superior Dr, Dandenong South VIC 3175, Australia",-38.033446399999995,145.2027912
Wild Outdoors Australia,Gun Shop,"24 Foch St, North Shore VIC 3214, Australia",-38.0937319,144.3706168
Melbourne Gun Works,Gun Shop,"4, 6 Ovata Dr, Tullamarine VIC 3043, Australia",-37.7114,144.866198
Great Southern Outdoors Inc. Boronia Firearms,Gun Shop,"77A Boronia Rd, Boronia VIC 3155, Australia",-37.862472,145.2876967
Northern Vic Ammo Supplies,Gun Shop,"Karobean/361 Lawrence Rd, Tungamah VIC 3728, Australia",-36.1892187,145.7899564
Sunbury Firearm Supplies,Gun Shop,"56 McDougall Rd, Sunbury VIC 3429, Australia",-37.5947269,144.7170174
H&S FIREARMS,Gun Shop,"shop 6/61 Princes Hwy, Sale VIC 3850, Australia",-38.0884162,147.0693718
Centreway Firearms,Gun Shop,"65 Wyong St, Keilor East VIC 3033, Australia",-37.732296999999996,144.866014
Yarra Valley Hunting and Recreation,Gun Shop,"4/9 Clarke St, Lilydale VIC 3140, Australia",-37.7581145,145.35055830000002
Pakenham Firearms,Gun Shop,"4 Bravo Lp, Pakenham VIC 3810, Australia",-38.1005776,145.48120179999998
Magnum Sports,Gun Shop,"19 Babbage Rd, Roseville Chase NSW 2069, Australia",-33.778481,151.19528699999998
Mansfield Hunting and Fishing,Gun Shop,"17 High St, Mansfield VIC 3722, Australia",-37.0521367,146.0912349
Gun Sport Trading,Gun Shop,"2/493 Main St, Bairnsdale VIC 3875, Australia",-37.835696999999996,147.602692
Delta Tactical,Gun Shop,"South Morang VIC 3752, Australia",-37.6481458,145.0845234
H. Rehfisch & Co,Gun Shop,"903 La Trobe St, Delacombe VIC 3356, Australia",-37.5718345,143.82277
CENTRAL VIC BANGSTICKS,Gun Shop,"2154 Beaufort-Lexton Rd, Lexton VIC 3352, Australia",-37.29671080000001,143.49952349999998
Buloke Firearms,Gun Shop,"77 Woods St, Donald VIC 3480, Australia",-36.3712241,142.9833086
Winchester Australia Ltd.,Gun Shop,"65 Hays Rd, Moolap VIC 3221, Australia",-38.157452,144.4387127
Gun World Australia,Gun Shop,"2/18 Elliott Ct, Hillcrest QLD 4118, Australia",-27.661585799999997,153.0332875
Marma Lake Firearms Pty Ltd,Gun Shop,"62 McClintock St, Murtoa VIC 3390, Australia",-36.621973,142.460973
Cleaver Firearms,Gun Shop,"27 Beaconsfield St, Margate QLD 4019, Australia",-27.2425,153.1080556
Firearms Warehouse (Gold Coast's Biggest Gun Shop),Gun Shop,"32 Strathaird Rd, Bundall QLD 4217, Australia",-28.0074927,153.4006004
Browns Plains Firearms,Gun Shop,"3/101 Grand Plaza Dr, Browns Plains QLD 4118, Australia",-27.6623999,153.0435281
On Target Sporting Arms,Gun Shop,"168 S Pine Rd, Enoggera QLD 4051, Australia",-27.4190963,152.997836
Owen Guns,Gun Shop,"24 McMahon Rd, Monkland QLD 4570, Australia",-26.218178700000003,152.68484899999999
Queensland Shooters Supplies,Gun Shop,"266 Brisbane St, West Ipswich QLD 4305, Australia",-27.6197436,152.7492121
The QStore,Gun Shop,"1485 Old Cleveland Rd, Belmont QLD 4153, Australia",-27.508018,153.1345019
Johnson’s Firearms,Gun Shop,"130A Howard St, Nambour QLD 4560, Australia",-26.62662,152.9657171
The Open Range,Gun Shop,"251 James St, Toowoomba City QLD 4350, Australia",-27.567230900000002,151.9444796
Pagan Firearms,Gun Shop,"14 Carlton St, Kirwan QLD 4817, Australia",-19.3016017,146.7336575
Collectors Armoury,Gun Shop,"42 John Rogers Rd, Mudgeeraba QLD 4213, Australia",-28.0988862,153.3265749
Guns Plus Ammo,Gun Shop,"1/2-6 Paul Ct, Jimboomba QLD 4280, Australia",-27.8256463,153.0298589
Mackay Gun Shop,Gun Shop,"7 Lawson St, Mackay QLD 4740, Australia",-21.1425988,149.192395
Downs Guns and Ammo,Gun Shop,"1/57 Grafton St, Warwick QLD 4370, Australia",-28.216480299999997,152.0360949
Hall's Firearms,Gun Shop,"103 Charters Towers Rd, Hyde Park QLD 4812, Australia",-19.2756658,146.8006987
Townsville Gun Shop,Gun Shop,"Unit 1/54 Pilkington St, Garbutt QLD 4814, Australia",-19.271515,146.7674147
Oakhurst Gun Works,Gun Shop,"67 Woocoo Dr, Oakhurst QLD 4650, Australia",-25.512062,152.618846
Valhalla Tactical & Outdoor,Gun Shop,"2/54 Pickering St, Enoggera QLD 4051, Australia",-27.4200846,152.9961588
Mount Morgan Guns,Gun Shop,"69 Morgan St, Mount Morgan QLD 4714, Australia",-23.6450826,150.3885321
ProShoot Guns & Storage,Gun Shop,"65 Bunya St, Maleny QLD 4552, Australia",-26.765331099999997,152.8560369
Southern Cross Militaria,Gun Shop,"13 Diagonal St, Toowoomba City QLD 4350, Australia",-27.5721575,151.94400059999998
Single Action Supplies Australia,Gun Shop,"597 Cooroy Noosa Rd, Tinbeerwah QLD 4563, Australia",-26.405113099999998,152.9708205
Spring Loaded Gun Shop Mareeba,Gun Shop,"62 Venture Rd, Mareeba QLD 4880, Australia",-17.0580004,145.4394992
The Gun Shed,Gun Shop,"3/3 Millennium Cct, Helensvale QLD 4212, Australia",-27.9294898,153.3340189
Cairns Shooters Supplies,Gun Shop,"205 Draper St, Parramatta Park QLD 4870, Australia",-16.928556,145.769895
3 Gun Tactical - By Appointment,Gun Shop,"unit 8/1631 Wynnum Rd, Tingalpa QLD 4173, Australia",-27.4746658,153.1308962
Mackay Shooters Supplies,Gun Shop,"Terminus Business Park, Unit 7/20-34 Caterpillar Dr, Paget QLD 4740, Australia",-21.185267,149.150717
John Vichie Firearms,Gun Shop,"24 Matthew St, Stanthorpe QLD 4380, Australia",-28.6577536,151.9352265
Aqusport,Gun Shop,"2/20 Expansion St, Ashmore QLD 4218, Australia",-27.9769282,153.35689739999998
Kingaroy Firearms & Supplies,Gun Shop,"106 Kingaroy St, Kingaroy QLD 4610, Australia",-26.543174699999998,151.83911129999998
Western Firearms,Gun Shop,"159-163 Penshurst St, Beverly Hills NSW 2209, Australia",-33.954794,151.0781216
Tex Gun Supplies,Gun Shop,"13 Palomino Ave, Tolga QLD 4882, Australia",-17.20338,145.46187300000003
Alpha Hunting and Outdoors,Gun Shop,"Shop 2/33 Archibald St, Dalby QLD 4405, Australia",-27.1806725,151.26415169999999
Dalzell Rifle Smithing,Gun Shop,"Hampton QLD 4352, Australia",-27.356261099999998,152.06892
Roma Outdoors & Sports,Gun Shop,"47 McDowall St, Roma QLD 4455, Australia",-26.5717771,148.7916884
Under Resistance - by appointment,Gun Shop,"unit 8/1631 Wynnum Rd, Tingalpa QLD 4173, Australia",-27.4744407,153.1309068
Balonne Sports Store,Gun Shop,"108 Victoria St, St George QLD 4487, Australia",-28.036539800000003,148.58127869999998
Bartley Rural Guns & Gear,Gun Shop,"20 High St, Texas QLD 4385, Australia",-28.855192600000002,151.1667503
Barry & Son Firearms Military Collectables,Gun Shop,"8 Clapham St, Beckenham WA 6107, Australia",-32.02691,115.95225
DOWNRANGE PERTH FIREARMS,Gun Shop,"Unit 3/52 Erindale Rd, Balcatta WA 6021, Australia",-31.8652779,115.80720459999999
Claremont Firearms,Gun Shop,"28 Erceg Rd, Yangebup WA 6164, Australia",-32.1202877,115.7991581
Beaton Firearms,Gun Shop,"3/8 Sampson St, Maddington WA 6109, Australia",-32.0488351,115.980782
Lock & Load Guns and Ammo,Gun Shop,"The Grange Business Centre 8, 15 Tomlinson Rd, Welshpool WA 6106, Australia",-31.992984,115.92443259999999
Shooters Shed,Gun Shop,"3/73 Buckingham Dr, Wangara WA 6065, Australia",-31.787605300000003,115.8267139
Roy Alexander & Sons,Gun Shop,"44 Eighth Ave, Maylands WA 6051, Australia",-31.929650600000002,115.89333570000001
Downrange Midland,Gun Shop,"Unit 2/212 Great Eastern Hwy, Midland WA 6056, Australia",-31.891909100000003,116.01585139999999
The Hunters Den,Gun Shop,"170 Winton Rd, Joondalup WA 6027, Australia",-31.7423288,115.76261029999998
Steelos Outdoors,Gun Shop,"175 Federal St, Narrogin WA 6312, Australia",-32.9438714,117.18026540000001
Pro Firearms,Gun Shop,"12 Iron St, Malaga WA 6090, Australia",-31.858596700000003,115.9069886
Southwest Firearms,Gun Shop,"29 Fairlawn Rd, Busselton WA 6280, Australia",-33.6628308,115.3457885
The Gun Store,Gun Shop,"Unit 3/13 Shanahan Rd, Davenport WA 6230, Australia",-33.3646262,115.67309580000001
Cockburn Guns & Ammo,Gun Shop,"438 Carrington St, Hamilton Hill WA 6163, Australia",-32.0859575,115.77708429999998
Horsley Park Gun Shop,Gun Shop,"1848 The Horsley Dr, Horsley Park NSW 2175, Australia",-33.841572,150.84659399999998
The Shooters Shop,Gun Shop,"2/7 Hampton St, Greenfields WA 6210, Australia",-32.5119095,115.75008360000001
CBS Firearms,Gun Shop,"80 Wilson Rd, Mount Barker WA 6324, Australia",-34.549299999999995,117.60004769999998
Granny's Guns & Ammo,Gun Shop,"Rear/Unit 55 Fitzgerald St E, Northam WA 6401, Australia",-31.650001399999997,116.6741496
Progress Equipment,Gun Shop,"1/178 Star St, Carlisle WA 6101, Australia",-31.9831726,115.9250234
Batavia Coast Firearms & Ammunition,Gun Shop,"281 Place Rd, Webberton WA 6530, Australia",-28.758946599999998,114.6340006
Ray's Firearms & Archery,Gun Shop,"298 York St, Albany WA 6330, Australia",-35.0211687,117.8837481
DERBY FIREARM SUPPLIES,Gun Shop,"Lot 684 Fitzroy St, Derby WA 6728, Australia",-17.3267269,123.65296699999999
Thomson Gunsmithing And Precision Rifles,Gun Shop,"2021 Toodyay Rd, Gidgegannup WA 6083, Australia",-31.794329500000003,116.19323499999999
The Adelaide Gun Shop Pty Ltd,Gun Shop,"212 Gouger St, Adelaide SA 5000, Australia",-34.930425899999996,138.5910956
C & S Sporting Arms,Gun Shop,"13/15 Langford St, Pooraka SA 5095, Australia",-34.8198906,138.63579099999998
SARA Store,Gun Shop,"10 Gum Ave, Dry Creek SA 5094, Australia",-34.837597599999995,138.5893227
Gunforce,Gun Shop,"28 Orsmond St, Hindmarsh SA 5007, Australia",-34.9075805,138.5726319
The Gunnery - Gun Shop & Shooting Range,Gun Shop,"51 Beach Rd, Christies Beach SA 5165, Australia",-35.139017599999995,138.4755116
Projectile Warehouse,Gun Shop,"809-811 South Rd, Clarence Gardens SA 5039, Australia",-34.9681251,138.5736111
Range and Field,Gun Shop,"516 S Para Rd, Kersbrook SA 5231, Australia",-34.7114589,138.8820366
Safari Zoomer Tactical,Gun Shop,"2/12 Mengel Ct, Salisbury South SA 5106, Australia",-34.7882007,138.6454449
Murraylands Firearms,Gun Shop,"67 Railway Terrace, Tailem Bend SA 5260, Australia",-35.255804499999996,139.4559117
Gunning For You,Gun Shop,"41 Maude St, Encounter Bay SA 5211, Australia",-35.5593802,138.60128939999998
FlindersOutdoors,Gun Shop,"54 Esmond Rd, Port Pirie South SA 5540, Australia",-33.1929825,138.0117604
Western Adelaide Firearms. Appointment only.,Gun Shop,"Jh, Ferryden Park SA 5013, Australia",-34.8632132,138.5565021
Woolfwinch Guns & Ammo,Gun Shop,"Warnertown SA 5540, Australia",-33.2363651,138.119899
Classic Firearms,Gun Shop,"230 Tea Tree Glen Rd, Nalyappa SA 5558, Australia",-34.19900810000001,137.5701367
Ziersch Custom Rifles,Gun Shop,"2 Stanley St, Auburn SA 5451, Australia",-34.0276635,138.69082260000002
Oz Gun Mart,Gun Shop,"6/2a Madeline St, Strathfield South NSW 2136, Australia",-33.896611199999995,151.0794846
Williams Outdoors - New Norfolk Gun Shop,Gun Shop,"41 High St, New Norfolk TAS 7140, Australia",-42.781084,147.063376
Gun Sales & Service PTY LTD,Gun Shop,"Unit 2/190 Invermay Rd, Mowbray TAS 7248, Australia",-41.4106853,147.1325951
Southeast Firearms,Gun Shop,"Unit 3/31 Cole St, Sorell TAS 7172, Australia",-42.781191799999995,147.5631262
Rod & Range Sports,Gun Shop,"351 Main Rd, Glenorchy TAS 7010, Australia",-42.8333663,147.27839659999998
The Hunting Shed,Gun Shop,"41A Besser Cres, Camdale TAS 7320, Australia",-41.0413551,145.8508148
Brighton Hunting & Outdoors,Gun Shop,"24 Elderslie Rd, Brighton TAS 7030, Australia",-42.702059000000006,147.2462051
J and J Guns,Gun Shop,"137 Weld St, Beaconsfield TAS 7270, Australia",-41.2002074,146.8157863
Griffiths Guns & Ammo,Gun Shop,"180 Wandilla Rd, Quamby Brook TAS 7304, Australia",-41.5952987,146.7348274
AmmoInk,Gun Shop,"50 William St, Ulverstone TAS 7315, Australia",-41.1642497,146.18135680000003
Rolf Hey Gunsmith and General Engineer,Gun Shop,"2 Merriworth Rd, Tea Tree TAS 7017, Australia",-42.6898379,147.3318926
Elite Arms & Ammo,Gun Shop,"3/45 Heffernan St, Mitchell ACT 2911, Australia",-35.218508899999996,149.1418268
Monaro Arms - Canberra Gun Shop,Gun Shop,"Unit 6/105 Newcastle St, Fyshwick ACT 2609, Australia",-35.3286604,149.17641989999998
Tough Gear Hunting,Gun Shop,"35 Carrington St, Queanbeyan NSW 2620, Australia",-35.3402554,149.2406617
Valhalla Tactical & Outdoor,Gun Shop,"34 Wollongong St, Fyshwick ACT 2609, Australia",-35.326032999999995,149.179316
ACT Firearms Registry,Gun Shop,"86 Vicars St, Mitchell ACT 2911, Australia",-35.2096479,149.1408002
Ironside Military & Security,Gun Shop,"Unit 4/64-66 Wollongong St, Fyshwick ACT 2609, Australia",-35.324291200000005,149.18014599999998
Military Shop,Gun Shop,"65 Kembla St, Fyshwick ACT 2609, Australia",-35.3233345,149.17398369999998
Canberra National Pistol Club,Gun Shop,"20 Mount Ainslie Dr, Campbell ACT 2612, Australia",-35.2834433,149.1625551
Coolalinga Guns & Ammo,Gun Shop,"26 McKenzie Pl, Yarrawonga NT 0830, Australia",-12.4689006,130.98435039999998
Fishing & Outdoor World,Gun Shop,"36 Cavenagh St, Darwin City NT 0800, Australia",-12.461991,130.84278799999998
Rod & Rifle Tackleworld,Gun Shop,"12 Giles St, Katherine NT 0850, Australia",-14.463575599999999,132.26519919999998
Valhalla Tactical & Outdoor,Gun Shop,"1 Calvin St, Yarrawonga NT 0830, Australia",-12.4717908,130.98589479999998
Hansen Custom,Gun Shop,"4 Bathurst St, Leanyer NT 0812, Australia",-12.3745777,130.8920067
Gun Supplies,Gun Shop,"43 Dixon Rd, Braitling NT 0870, Australia",-23.6754788,133.8683465
Mitchells Adventure,Gun Shop,"788 Stuart Hwy, Berrimah NT 0828, Australia",-12.443273,130.94708
The NT General Store,Gun Shop,"42 Cavenagh St, Darwin City NT 0800, Australia",-12.4611539,130.84244859999998
Goldfields Guns And Ammo,Gun Shop,"113 Paterson St, Tennant Creek NT 0860, Australia",-19.643908,134.19101799999999
Badlands,Gun Shop,"2/7 Hoyle Ave, Castle Hill NSW 2154, Australia",-33.7316587,150.98341489999999
Arms & Ammo,Gun Shop,"5/3 Arunga Dr, Beresfield NSW 2322, Australia",-32.809498,151.639683
Herron Security & Sport,Gun Shop,"Willoughby NSW 2068, Australia",-33.803557,151.1989173
Lock N Load Firearm Supplies,Gun Shop,"16/9-11 Willow Tree Rd, Wyong NSW 2259, Australia",-33.2647385,151.44768480000002
Twin Rivers Firearms,Gun Shop,"Unit 1/12 Corporation Ave, Robin Hill NSW 2795, Australia",-33.415247199999996,149.5482965
Extreme Outdoor Sports Pty Ltd,Gun Shop,"154 Industrial Rd, Oak Flats NSW 2529, Australia",-34.564473899999996,150.8044755
Buy A Safe,Gun Shop,"203 Victoria Rd, Marrickville NSW 2204, Australia",-33.909472,151.162059
Old West Guns,Gun Shop,"83 Amber Way, Kundabung NSW 2441, Australia",-31.186051900000002,152.81286620000003
Newcastle Armoury,Gun Shop,"Unit 2/78 Seventh St, Boolaroo NSW 2284, Australia",-32.954763,151.61657549999998
Bullets & Bits,Gun Shop,"139 Kite St, Orange NSW 2800, Australia",-33.2858385,149.1025186
Wilson's Target Arms,Gun Shop,"439 Avoca Dr, Green Point NSW 2251, Australia",-33.464673499999996,151.370455
Young Guns and Ammunition,Gun Shop,"79-81 Boorowa St, Young NSW 2594, Australia",-34.313381899999996,148.2984998
South West Shooting Supplies,Gun Shop,"2/6 Corcoran Ct, Boorowa NSW 2586, Australia",-34.4317697,148.7341179
